{ "ICONS": [
{
  "id" : "famartin1CAM3",
  "name" : "famartin1",
  "camindex" : "3",
  "lat" : "40.25986099",
  "lon" : "-74.78633881",
  "image" : "/webcamramdisk/f/a/famartin1/3/current.jpg",
  "thumb" : "f/a/famartin1/3/current-thumb.jpg",
  "zip" : "08618",
  "city" : "Ewing",
  "state" : "NJ",
  "country" : "US",
  "link" : "",
  "linktext" : "",
  "neighborhood" : "Parkway Village (snow cam)",
  "cameratype" : "Sharx Security SCNC3905",
  "assoc_station_id" : "KNJEWING4",
  "trafficcam" : "",
  "updated" : "2017-01-07 21:10:02",
  "rect" : "438,233,498,278"
}
,
{
  "id" : "kjkilCAM3",
  "name" : "kjkil",
  "camindex" : "3",
  "lat" : "40.61615753",
  "lon" : "-74.52879333",
  "image" : "/webcamramdisk/k/j/kjkil/3/current.jpg",
  "thumb" : "k/j/kjkil/3/current-thumb.jpg",
  "zip" : "07059",
  "city" : "Warren",
  "state" : "NJ",
  "country" : "US",
  "link" : "http://",
  "linktext" : "",
  "neighborhood" : "Warren, NJ",
  "cameratype" : "",
  "assoc_station_id" : "KNJWARRE7",
  "trafficcam" : "",
  "updated" : "2017-01-07 21:09:58",
  "rect" : "520,147,580,192"
}
,
{
  "id" : "snydjackCAM1",
  "name" : "snydjack",
  "camindex" : "1",
  "lat" : "39.80428314",
  "lon" : "-74.99537659",
  "image" : "/webcamramdisk/s/n/snydjack/1/current.jpg",
  "thumb" : "s/n/snydjack/1/current-thumb.jpg",
  "zip" : "08021",
  "city" : "Clementon",
  "state" : "NJ",
  "country" : "US",
  "link" : "http://",
  "linktext" : "",
  "neighborhood" : "Clementon Borough",
  "cameratype" : "AMBIENTCAMHD",
  "assoc_station_id" : "KNJCLEME3",
  "trafficcam" : "",
  "updated" : "2017-01-07 21:09:49",
  "rect" : "371,342,431,387"
}
,
{
  "id" : "jrwilkinsCAM2",
  "name" : "jrwilkins",
  "camindex" : "2",
  "lat" : "39.73688126",
  "lon" : "-75.33306122",
  "image" : "/webcamramdisk/j/r/jrwilkins/2/current.jpg",
  "thumb" : "j/r/jrwilkins/2/current-thumb.jpg",
  "zip" : "08085",
  "city" : "WOOLWICH TWP",
  "state" : "NJ",
  "country" : "US",
  "link" : "",
  "linktext" : "",
  "neighborhood" : "Four Seasons at Weatherby",
  "cameratype" : "",
  "assoc_station_id" : "",
  "trafficcam" : "",
  "updated" : "2017-01-07 21:09:44",
  "rect" : "263,358,323,403"
}
,
{
  "id" : "chesterspringsCAM1",
  "name" : "chestersprings",
  "camindex" : "1",
  "lat" : "40.08253479",
  "lon" : "-75.60065460",
  "image" : "/webcamramdisk/c/h/chestersprings/1/current.jpg",
  "thumb" : "c/h/chestersprings/1/current-thumb.jpg",
  "zip" : "19425",
  "city" : "Chester Springs",
  "state" : "PA",
  "country" : "US",
  "link" : "http://",
  "linktext" : "",
  "neighborhood" : "Chester Springs",
  "cameratype" : "",
  "assoc_station_id" : "KPACHEST2",
  "trafficcam" : "",
  "updated" : "2017-01-07 21:08:02",
  "rect" : "177,275,237,320"
}
,
{
  "id" : "hdbikerCAM3",
  "name" : "hdbiker",
  "camindex" : "3",
  "lat" : "39.52043915",
  "lon" : "-74.68264771",
  "image" : "/webcamramdisk/h/d/hdbiker/3/current.jpg",
  "thumb" : "h/d/hdbiker/3/current-thumb.jpg",
  "zip" : "08330",
  "city" : "Mays Landing",
  "state" : "NJ",
  "country" : "US",
  "link" : "http://",
  "linktext" : "",
  "neighborhood" : "Laureldale",
  "cameratype" : "",
  "assoc_station_id" : "KNJHAMIL23",
  "trafficcam" : "",
  "updated" : "2017-01-07 21:09:27",
  "rect" : "471,409,531,454"
}
,
{
  "id" : "raindance2CAM2",
  "name" : "raindance2",
  "camindex" : "2",
  "lat" : "40.83957291",
  "lon" : "-75.01320648",
  "image" : "/webcamramdisk/r/a/raindance2/2/current.jpg",
  "thumb" : "r/a/raindance2/2/current-thumb.jpg",
  "zip" : "07823",
  "city" : "Belvidere",
  "state" : "NJ",
  "country" : "US",
  "link" : "",
  "linktext" : "",
  "neighborhood" : "Belvidere, New Jeresy",
  "cameratype" : "",
  "assoc_station_id" : "",
  "trafficcam" : "",
  "updated" : "2017-01-07 21:09:21",
  "rect" : "365,93,425,138"
}
,
{
  "id" : "GI2MOTOCAM1",
  "name" : "GI2MOTO",
  "camindex" : "1",
  "lat" : "40.24291229",
  "lon" : "-75.26607513",
  "image" : "/webcamramdisk/g/i/GI2MOTO/1/current.jpg",
  "thumb" : "g/i/GI2MOTO/1/current-thumb.jpg",
  "zip" : "19446",
  "city" : "Lansdale",
  "state" : "PA",
  "country" : "US",
  "link" : "",
  "linktext" : "",
  "neighborhood" : "",
  "cameratype" : "Trendnet TVIP110W",
  "assoc_station_id" : "KPALANSD6",
  "trafficcam" : "",
  "updated" : "2017-01-07 21:09:13",
  "rect" : "284,237,344,282"
}
,
{
  "id" : "aharrisonCAM1",
  "name" : "aharrison",
  "camindex" : "1",
  "lat" : "40.44957733",
  "lon" : "-74.84466553",
  "image" : "/webcamramdisk/a/h/aharrison/1/current.jpg",
  "thumb" : "a/h/aharrison/1/current-thumb.jpg",
  "zip" : "08551",
  "city" : "Ringoes",
  "state" : "NJ",
  "country" : "US",
  "link" : "http://harrisonwx.com",
  "linktext" : "HarrisonWX Weather Station",
  "neighborhood" : "Ringoes, NJ",
  "cameratype" : "BloomSky",
  "assoc_station_id" : "KNJRINGO2",
  "trafficcam" : "",
  "updated" : "2017-01-07 21:09:09",
  "rect" : "419,187,479,232"
}
,
{
  "id" : "franpipemanCAM1",
  "name" : "franpipeman",
  "camindex" : "1",
  "lat" : "40.31043625",
  "lon" : "-76.11589813",
  "image" : "/webcamramdisk/f/r/franpipeman/1/current.jpg",
  "thumb" : "f/r/franpipeman/1/current-thumb.jpg",
  "zip" : "19565",
  "city" : "wernersville",
  "state" : "PA",
  "country" : "US",
  "link" : "http://",
  "linktext" : "",
  "neighborhood" : "",
  "cameratype" : "",
  "assoc_station_id" : "KPAWERNE3",
  "trafficcam" : "",
  "updated" : "2017-01-07 21:09:06",
  "rect" : "12,221,72,266"
}
,
{
  "id" : "Jeb1992CAM1",
  "name" : "Jeb1992",
  "camindex" : "1",
  "lat" : "40.15551758",
  "lon" : "-75.88412476",
  "image" : "/webcamramdisk/j/e/Jeb1992/1/current.jpg",
  "thumb" : "j/e/Jeb1992/1/current-thumb.jpg",
  "zip" : "19543",
  "city" : "Morgantown",
  "state" : "PA",
  "country" : "US",
  "link" : "",
  "linktext" : "",
  "neighborhood" : "South Street",
  "cameratype" : "",
  "assoc_station_id" : "KPAMORGA4",
  "trafficcam" : "",
  "updated" : "2017-01-07 21:08:58",
  "rect" : "86,258,146,303"
}
,
{
  "id" : "ttpilotCAM1",
  "name" : "ttpilot",
  "camindex" : "1",
  "lat" : "40.17250061",
  "lon" : "-76.17972565",
  "image" : "/webcamramdisk/t/t/ttpilot/1/current.jpg",
  "thumb" : "t/t/ttpilot/1/current-thumb.jpg",
  "zip" : "17522",
  "city" : "Ephrata",
  "state" : "PA",
  "country" : "US",
  "link" : "http://",
  "linktext" : "",
  "neighborhood" : "Ephrata Borough",
  "cameratype" : "",
  "assoc_station_id" : "KPAEPHRA9",
  "trafficcam" : "",
  "updated" : "2017-01-07 21:08:52",
  "rect" : "-8,254,52,299"
}
,
{
  "id" : "rch105CAM1",
  "name" : "rch105",
  "camindex" : "1",
  "lat" : "40.88716125",
  "lon" : "-75.37785339",
  "image" : "/webcamramdisk/r/c/rch105/1/current.jpg",
  "thumb" : "r/c/rch105/1/current-thumb.jpg",
  "zip" : "18353",
  "city" : "Saylorsburg",
  "state" : "PA",
  "country" : "US",
  "link" : "http://",
  "linktext" : "",
  "neighborhood" : "Stone Hill Lane",
  "cameratype" : "Logitech Pro 9000 using Yawcam for FTP",
  "assoc_station_id" : "KPASAYLO3",
  "trafficcam" : "",
  "updated" : "2017-01-07 21:08:43",
  "rect" : "248,82,308,127"
}
,
{
  "id" : "NurtureNatureCenterCAM1",
  "name" : "NurtureNatureCenter",
  "camindex" : "1",
  "lat" : "40.69087601",
  "lon" : "-75.21363831",
  "image" : "/webcamramdisk/n/u/NurtureNatureCenter/1/current.jpg",
  "thumb" : "n/u/NurtureNatureCenter/1/current-thumb.jpg",
  "zip" : "18042",
  "city" : "Easton",
  "state" : "PA",
  "country" : "US",
  "link" : "http://",
  "linktext" : "",
  "neighborhood" : "Downtown Easton",
  "cameratype" : "",
  "assoc_station_id" : "KPAEASTO22",
  "trafficcam" : "",
  "updated" : "2017-01-07 21:08:48",
  "rect" : "301,129,361,174"
}
,
{
  "id" : "AdamLevisonCAM2",
  "name" : "AdamLevison",
  "camindex" : "2",
  "lat" : "40.61358643",
  "lon" : "-74.76647186",
  "image" : "/webcamramdisk/a/d/AdamLevison/2/current.jpg",
  "thumb" : "a/d/AdamLevison/2/current-thumb.jpg",
  "zip" : "08889",
  "city" : "Whitehouse Station",
  "state" : "NJ",
  "country" : "US",
  "link" : "http://ef7235.myfoscam.org:8091",
  "linktext" : "Whitehouse Weather Command",
  "neighborhood" : "Whitehouse Station",
  "cameratype" : "",
  "assoc_station_id" : "",
  "trafficcam" : "",
  "updated" : "2017-01-07 21:09:46",
  "rect" : "444,148,504,193"
}
,
{
  "id" : "devicenullCAM1",
  "name" : "devicenull",
  "camindex" : "1",
  "lat" : "40.53903961",
  "lon" : "-74.43222046",
  "image" : "/webcamramdisk/d/e/devicenull/1/current.jpg",
  "thumb" : "d/e/devicenull/1/current-thumb.jpg",
  "zip" : "08854",
  "city" : "Piscataway",
  "state" : "NJ",
  "country" : "US",
  "link" : "http://",
  "linktext" : "",
  "neighborhood" : "Piscataway",
  "cameratype" : "",
  "assoc_station_id" : "",
  "trafficcam" : "",
  "updated" : "2017-01-07 21:08:49",
  "rect" : "551,166,611,211"
}
,
{
  "id" : "MattinPACAM1",
  "name" : "MattinPA",
  "camindex" : "1",
  "lat" : "40.05328751",
  "lon" : "-75.87905121",
  "image" : "/webcamramdisk/m/a/MattinPA/1/current.jpg",
  "thumb" : "m/a/MattinPA/1/current-thumb.jpg",
  "zip" : "19344",
  "city" : "Honey Brook",
  "state" : "PA",
  "country" : "US",
  "link" : "http://",
  "linktext" : "",
  "neighborhood" : "The Baron Hills",
  "cameratype" : "AmbientCamHD",
  "assoc_station_id" : "KPAHONEY5",
  "trafficcam" : "",
  "updated" : "2017-01-07 21:09:14",
  "rect" : "88,282,148,327"
}
,
{
  "id" : "michaelhester07CAM1",
  "name" : "michaelhester07",
  "camindex" : "1",
  "lat" : "40.32940674",
  "lon" : "-74.59284210",
  "image" : "/webcamramdisk/m/i/michaelhester07/1/current.jpg",
  "thumb" : "m/i/michaelhester07/1/current-thumb.jpg",
  "zip" : "08536",
  "city" : "plainsboro",
  "state" : "NJ",
  "country" : "US",
  "link" : "http://",
  "linktext" : "",
  "neighborhood" : "Eaves at Plainsboro",
  "cameratype" : "Logitech C270 on Raspberry PI 2",
  "assoc_station_id" : "",
  "trafficcam" : "",
  "updated" : "2017-01-07 21:08:26",
  "rect" : "500,216,560,261"
}
,
{
  "id" : "theperegrinsCAM1",
  "name" : "theperegrins",
  "camindex" : "1",
  "lat" : "40.99558640",
  "lon" : "-76.11180878",
  "image" : "/webcamramdisk/t/h/theperegrins/1/current.jpg",
  "thumb" : "t/h/theperegrins/1/current-thumb.jpg",
  "zip" : "18249",
  "city" : "Sugarloaf",
  "state" : "PA",
  "country" : "US",
  "link" : "http://",
  "linktext" : "Sugarloaf Mountain",
  "neighborhood" : "Sugarloaf Mountain",
  "cameratype" : "",
  "assoc_station_id" : "KPASUGAR2",
  "trafficcam" : "",
  "updated" : "2017-01-07 21:08:16",
  "rect" : "13,55,73,100"
}
,
{
  "id" : "SkillpersonNJCAM1",
  "name" : "SkillpersonNJ",
  "camindex" : "1",
  "lat" : "40.42394257",
  "lon" : "-74.70359802",
  "image" : "/webcamramdisk/s/k/SkillpersonNJ/1/current.jpg",
  "thumb" : "s/k/SkillpersonNJ/1/current-thumb.jpg",
  "zip" : "08558",
  "city" : "Skillman",
  "state" : "NJ",
  "country" : "US",
  "link" : "",
  "linktext" : "",
  "neighborhood" : "Country Cabinet Shop",
  "cameratype" : "Foscam F19804P",
  "assoc_station_id" : "KNJSKILL2",
  "trafficcam" : "",
  "updated" : "2017-01-07 21:09:12",
  "rect" : "464,193,524,238"
}
,
{
  "id" : "Leon722CAM1",
  "name" : "Leon722",
  "camindex" : "1",
  "lat" : "39.84905243",
  "lon" : "-74.71430969",
  "image" : "/webcamramdisk/l/e/Leon722/1/current.jpg",
  "thumb" : "l/e/Leon722/1/current-thumb.jpg",
  "zip" : "08088",
  "city" : "Tabernacle",
  "state" : "NJ",
  "country" : "US",
  "link" : "http://http://winstanleyclan.us/home.html",
  "linktext" : "Winstanley Clan",
  "neighborhood" : "Front Driveway",
  "cameratype" : "",
  "assoc_station_id" : "KNJTABER5",
  "trafficcam" : "",
  "updated" : "2017-01-07 21:09:42",
  "rect" : "461,331,521,376"
}
,
{
  "id" : "goosenestCAM2",
  "name" : "goosenest",
  "camindex" : "2",
  "lat" : "40.90198135",
  "lon" : "-74.85098267",
  "image" : "/webcamramdisk/g/o/goosenest/2/current.jpg",
  "thumb" : "g/o/goosenest/2/current-thumb.jpg",
  "zip" : "07840",
  "city" : "Hackettstown",
  "state" : "NJ",
  "country" : "US",
  "link" : "http://www.wunderground.com/weatherstation/WXDailyHistory.asp?ID=KNJHACKE6",
  "linktext" : "KNJHACKE6",
  "neighborhood" : "Panther Valley",
  "cameratype" : "Logitech HD Pro Webcam C920",
  "assoc_station_id" : "KNJHACKE6",
  "trafficcam" : "",
  "updated" : "2017-01-07 21:09:24",
  "rect" : "417,78,477,123"
}
,
{
  "id" : "pennforestbehrensCAM1",
  "name" : "pennforestbehrens",
  "camindex" : "1",
  "lat" : "40.94474792",
  "lon" : "-75.65821838",
  "image" : "/webcamramdisk/p/e/pennforestbehrens/1/current.jpg",
  "thumb" : "p/e/pennforestbehrens/1/current-thumb.jpg",
  "zip" : "18229",
  "city" : "Penn Forest Twp",
  "state" : "PA",
  "country" : "US",
  "link" : "http://",
  "linktext" : "",
  "neighborhood" : "",
  "cameratype" : "Panasonic BLC1A",
  "assoc_station_id" : "",
  "trafficcam" : "",
  "updated" : "2017-01-07 21:09:51",
  "rect" : "159,68,219,113"
}
,
{
  "id" : "PaulWalshCAM1",
  "name" : "PaulWalsh",
  "camindex" : "1",
  "lat" : "40.05059814",
  "lon" : "-75.76452637",
  "image" : "/webcamramdisk/p/a/PaulWalsh/1/current.jpg",
  "thumb" : "p/a/PaulWalsh/1/current-thumb.jpg",
  "zip" : "19335",
  "city" : "Downingtown",
  "state" : "PA",
  "country" : "US",
  "link" : "http://webcam.wunderground.com",
  "linktext" : "",
  "neighborhood" : "East Brandywine",
  "cameratype" : "",
  "assoc_station_id" : "KPADOWNI11",
  "trafficcam" : "",
  "updated" : "2017-01-07 21:09:31",
  "rect" : "125,283,185,328"
}
,
{
  "id" : "jdrexelCAM4",
  "name" : "jdrexel",
  "camindex" : "4",
  "lat" : "39.80802917",
  "lon" : "-76.15821075",
  "image" : "/webcamramdisk/j/d/jdrexel/4/current.jpg",
  "thumb" : "j/d/jdrexel/4/current-thumb.jpg",
  "zip" : "17566",
  "city" : "Quarryville",
  "state" : "PA",
  "country" : "US",
  "link" : "http://",
  "linktext" : "",
  "neighborhood" : "Clermont",
  "cameratype" : "",
  "assoc_station_id" : "KPAQUARR17",
  "trafficcam" : "",
  "updated" : "2017-01-07 21:08:56",
  "rect" : "-1,341,59,386"
}
,
{
  "id" : "K3EACAM1",
  "name" : "K3EA",
  "camindex" : "1",
  "lat" : "40.21879578",
  "lon" : "-74.83140564",
  "image" : "/webcamramdisk/k/3/K3EA/1/current.jpg",
  "thumb" : "k/3/K3EA/1/current-thumb.jpg",
  "zip" : "19067",
  "city" : "Yardley",
  "state" : "PA",
  "country" : "US",
  "link" : "http://",
  "linktext" : "",
  "neighborhood" : "EDGEWOOD PARK / K3EA",
  "cameratype" : "",
  "assoc_station_id" : "KPAMORRI4",
  "trafficcam" : "",
  "updated" : "2017-01-07 21:07:13",
  "rect" : "423,243,483,288"
}
,
{
  "id" : "Ludwig2421CAM1",
  "name" : "Ludwig2421",
  "camindex" : "1",
  "lat" : "41.05619049",
  "lon" : "-75.28626251",
  "image" : "/webcamramdisk/l/u/Ludwig2421/1/current.jpg",
  "thumb" : "l/u/Ludwig2421/1/current-thumb.jpg",
  "zip" : "18372",
  "city" : "Tannersville",
  "state" : "PA",
  "country" : "US",
  "link" : "http://PoconoWeather.Info",
  "linktext" : "PoconoWeather.Info",
  "neighborhood" : "Pocono Township",
  "cameratype" : "",
  "assoc_station_id" : "KPATANNE4",
  "trafficcam" : "",
  "updated" : "2017-01-07 21:09:29",
  "rect" : "278,41,338,86"
}
,
{
  "id" : "EW0157CAM2",
  "name" : "EW0157",
  "camindex" : "2",
  "lat" : "41.14969635",
  "lon" : "-74.34976196",
  "image" : "/webcamramdisk/e/w/EW0157/2/current.jpg",
  "thumb" : "e/w/EW0157/2/current-thumb.jpg",
  "zip" : "07480",
  "city" : "West Milford",
  "state" : "NJ",
  "country" : "US",
  "link" : "http://weatherstationew0157.net",
  "linktext" : "",
  "neighborhood" : "",
  "cameratype" : "JPT3815",
  "assoc_station_id" : "KNJWESTM7",
  "trafficcam" : "",
  "updated" : "2017-01-07 21:08:47",
  "rect" : "577,18,637,63"
}
,
{
  "id" : "acallenCAM3",
  "name" : "acallen",
  "camindex" : "3",
  "lat" : "39.86399841",
  "lon" : "-74.79799652",
  "image" : "/webcamramdisk/a/c/acallen/3/current.jpg",
  "thumb" : "a/c/acallen/3/current-thumb.jpg",
  "zip" : "08055",
  "city" : "Medford Lakes",
  "state" : "NJ",
  "country" : "US",
  "link" : "http://",
  "linktext" : "",
  "neighborhood" : "Medford Lakes ",
  "cameratype" : "BLOOMSKY",
  "assoc_station_id" : "",
  "trafficcam" : "",
  "updated" : "2017-01-07 21:09:52",
  "rect" : "434,327,494,372"
}
,
{
  "id" : "TheSurfersViewCAM13",
  "name" : "TheSurfersView",
  "camindex" : "13",
  "lat" : "39.32027435",
  "lon" : "-74.51100159",
  "image" : "/webcamramdisk/t/h/TheSurfersView/13/current.jpg",
  "thumb" : "t/h/TheSurfersView/13/current-thumb.jpg",
  "zip" : "08402",
  "city" : "Margate City",
  "state" : "NJ",
  "country" : "US",
  "link" : "http://thesurfersview.com/live-beach-cams/south-jersey/margate-city",
  "linktext" : "Margate City, NJ Beach Cam",
  "neighborhood" : "Margate",
  "cameratype" : "ptz",
  "assoc_station_id" : "",
  "trafficcam" : "",
  "updated" : "2017-01-07 21:06:28",
  "rect" : "526,457,586,502"
}
,
{
  "id" : "rcalbiCAM3",
  "name" : "rcalbi",
  "camindex" : "3",
  "lat" : "40.85356903",
  "lon" : "-74.54145050",
  "image" : "/webcamramdisk/r/c/rcalbi/3/current.jpg",
  "thumb" : "r/c/rcalbi/3/current-thumb.jpg",
  "zip" : "07869",
  "city" : "Randolph",
  "state" : "NJ",
  "country" : "US",
  "link" : "http://",
  "linktext" : "Randolph - Driveway (CAM_04)",
  "neighborhood" : "Randolph, NJ",
  "cameratype" : "",
  "assoc_station_id" : "",
  "trafficcam" : "",
  "updated" : "2017-01-07 21:09:20",
  "rect" : "516,90,576,135"
}
,
{
  "id" : "hukuzatunaCAM1",
  "name" : "hukuzatuna",
  "camindex" : "1",
  "lat" : "39.78348160",
  "lon" : "-75.71836090",
  "image" : "/webcamramdisk/h/u/hukuzatuna/1/current.jpg",
  "thumb" : "h/u/hukuzatuna/1/current-thumb.jpg",
  "zip" : "19707",
  "city" : "Hockessin",
  "state" : "DE",
  "country" : "US",
  "link" : "http://",
  "linktext" : "",
  "neighborhood" : "Stenning Woods",
  "cameratype" : "Raspberry Pi RP_imx219",
  "assoc_station_id" : "KDEHOCKE9",
  "trafficcam" : "",
  "updated" : "2017-01-07 21:05:47",
  "rect" : "139,347,199,392"
}
,
{
  "id" : "wa4zlwCAM1",
  "name" : "wa4zlw",
  "camindex" : "1",
  "lat" : "40.44655991",
  "lon" : "-75.88383484",
  "image" : "/webcamramdisk/w/a/wa4zlw/1/current.jpg",
  "thumb" : "w/a/wa4zlw/1/current-thumb.jpg",
  "zip" : "19510",
  "city" : "Blandon",
  "state" : "PA",
  "country" : "US",
  "link" : "https://map.bloomsky.com/weather-stations/eaB1rJytnpS4q52m",
  "linktext" : "wa4zlw weather station",
  "neighborhood" : "Blandon Meadows",
  "cameratype" : "Bloomsky",
  "assoc_station_id" : "KPABLAND7",
  "trafficcam" : "",
  "updated" : "2017-01-07 21:03:43",
  "rect" : "86,188,146,233"
}
,
{
  "id" : "Chuckwagon23CAM1",
  "name" : "Chuckwagon23",
  "camindex" : "1",
  "lat" : "40.13869095",
  "lon" : "-75.13988495",
  "image" : "/webcamramdisk/c/h/Chuckwagon23/1/current.jpg",
  "thumb" : "c/h/Chuckwagon23/1/current-thumb.jpg",
  "zip" : "19001",
  "city" : "Roslyn",
  "state" : "PA",
  "country" : "US",
  "link" : "http://",
  "linktext" : "",
  "neighborhood" : "Senak",
  "cameratype" : "",
  "assoc_station_id" : "KPAABING9",
  "trafficcam" : "",
  "updated" : "2017-01-07 21:08:27",
  "rect" : "324,262,384,307"
}
,
{
  "id" : "MikecdooCAM1",
  "name" : "Mikecdoo",
  "camindex" : "1",
  "lat" : "39.99309921",
  "lon" : "-74.75129700",
  "image" : "/webcamramdisk/m/i/Mikecdoo/1/current.jpg",
  "thumb" : "m/i/Mikecdoo/1/current-thumb.jpg",
  "zip" : "08060",
  "city" : "Eastampton",
  "state" : "NJ",
  "country" : "US",
  "link" : "http://",
  "linktext" : "",
  "neighborhood" : "",
  "cameratype" : "",
  "assoc_station_id" : "KNJMTHOL2",
  "trafficcam" : "",
  "updated" : "2017-01-07 21:02:50",
  "rect" : "449,297,509,342"
}
,
{
  "id" : "flyerphan10CAM1",
  "name" : "flyerphan10",
  "camindex" : "1",
  "lat" : "39.60908127",
  "lon" : "-75.75917053",
  "image" : "/webcamramdisk/f/l/flyerphan10/1/current.jpg",
  "thumb" : "f/l/flyerphan10/1/current-thumb.jpg",
  "zip" : "19702",
  "city" : "Glasgow",
  "state" : "DE",
  "country" : "US",
  "link" : "http://www.wunderground.com/cgi-bin/findweather/getForecast?query=zmw:19702.3.99999",
  "linktext" : "La Grange Glasgow DE",
  "neighborhood" : "La Grange",
  "cameratype" : "",
  "assoc_station_id" : "KDEGLASG2",
  "trafficcam" : "",
  "updated" : "2017-01-07 21:09:30",
  "rect" : "126,388,186,433"
}
,
{
  "id" : "KDEHOCKE1CAMCAM2",
  "name" : "KDEHOCKE1CAM",
  "camindex" : "2",
  "lat" : "39.79833603",
  "lon" : "-75.67540741",
  "image" : "/webcamramdisk/k/d/KDEHOCKE1CAM/2/current.jpg",
  "thumb" : "k/d/KDEHOCKE1CAM/2/current-thumb.jpg",
  "zip" : "19707",
  "city" : "Hockessin",
  "state" : "DE",
  "country" : "US",
  "link" : "http://",
  "linktext" : "",
  "neighborhood" : "Valley View",
  "cameratype" : "",
  "assoc_station_id" : "KDEHOCKE1",
  "trafficcam" : "",
  "updated" : "2017-01-07 21:00:44",
  "rect" : "153,343,213,388"
}
,
{
  "id" : "bkushnerCAM1",
  "name" : "bkushner",
  "camindex" : "1",
  "lat" : "39.89582825",
  "lon" : "-75.07404327",
  "image" : "/webcamramdisk/b/k/bkushner/1/current.jpg",
  "thumb" : "b/k/bkushner/1/current-thumb.jpg",
  "zip" : "08106",
  "city" : "Audubon",
  "state" : "NJ",
  "country" : "US",
  "link" : "http://",
  "linktext" : "",
  "neighborhood" : "W. Nicholson Rd",
  "cameratype" : "Trendnet TV-IP110/W",
  "assoc_station_id" : "KNJAUDUB2",
  "trafficcam" : "",
  "updated" : "2017-01-07 21:08:36",
  "rect" : "346,320,406,365"
}
,
{
  "id" : "LynnCAM1",
  "name" : "Lynn",
  "camindex" : "1",
  "lat" : "39.61503601",
  "lon" : "-75.70948029",
  "image" : "/webcamramdisk/l/y/Lynn/1/current.jpg",
  "thumb" : "l/y/Lynn/1/current-thumb.jpg",
  "zip" : "19702",
  "city" : "Newark",
  "state" : "DE",
  "country" : "US",
  "link" : " ",
  "linktext" : " ",
  "neighborhood" : "Glasgow Pines",
  "cameratype" : "IDS uEye, 85mm Lens",
  "assoc_station_id" : "KDEBEAR1",
  "trafficcam" : "",
  "updated" : "2017-01-07 21:09:59",
  "rect" : "142,387,202,432"
}
,
{
  "id" : "Jeff302CAM1",
  "name" : "Jeff302",
  "camindex" : "1",
  "lat" : "39.77551651",
  "lon" : "-75.48873138",
  "image" : "/webcamramdisk/j/e/Jeff302/1/current.jpg",
  "thumb" : "j/e/Jeff302/1/current-thumb.jpg",
  "zip" : "19809",
  "city" : "Wilmington",
  "state" : "DE",
  "country" : "US",
  "link" : "http://www.wunderground.com/weatherstation/WXDailyHistory.asp?ID=KDEWILMI17",
  "linktext" : "Bellevue Hills, DE",
  "neighborhood" : "Bellevue Hills, DE",
  "cameratype" : "",
  "assoc_station_id" : "",
  "trafficcam" : "",
  "updated" : "2017-01-07 21:09:43",
  "rect" : "213,348,273,393"
}
,
{
  "id" : "kmarquisCAM1",
  "name" : "kmarquis",
  "camindex" : "1",
  "lat" : "39.90540695",
  "lon" : "-76.04753113",
  "image" : "/webcamramdisk/k/m/kmarquis/1/current.jpg",
  "thumb" : "k/m/kmarquis/1/current-thumb.jpg",
  "zip" : "17509",
  "city" : "Christiana",
  "state" : "PA",
  "country" : "US",
  "link" : "http://",
  "linktext" : "",
  "neighborhood" : "",
  "cameratype" : "AMBIENTCAMHDA",
  "assoc_station_id" : "KPACHRIS4",
  "trafficcam" : "",
  "updated" : "2017-01-07 20:54:20",
  "rect" : "34,318,94,363"
}
,
{
  "id" : "swilsonCAM2",
  "name" : "swilson",
  "camindex" : "2",
  "lat" : "41.18236160",
  "lon" : "-75.87066650",
  "image" : "/webcamramdisk/s/w/swilson/2/current.jpg",
  "thumb" : "s/w/swilson/2/current-thumb.jpg",
  "zip" : "18706",
  "city" : "Hanover Township",
  "state" : "PA",
  "country" : "US",
  "link" : "http://local.wnep.com/txweather/",
  "linktext" : "WNEP Transmitter Weather",
  "neighborhood" : "Penobscot Mountain",
  "cameratype" : "Lorex",
  "assoc_station_id" : "KPAHANOV6",
  "trafficcam" : "",
  "updated" : "2017-01-07 21:09:09",
  "rect" : "91,10,151,55"
}
,
{
  "id" : "astrogene1000CAM1",
  "name" : "astrogene1000",
  "camindex" : "1",
  "lat" : "40.27409744",
  "lon" : "-75.20499420",
  "image" : "/webcamramdisk/a/s/astrogene1000/1/current.jpg",
  "thumb" : "a/s/astrogene1000/1/current-thumb.jpg",
  "zip" : "18914",
  "city" : "Chalfont",
  "state" : "PA",
  "country" : "US",
  "link" : "http://www.astrogene1000.com",
  "linktext" : "Astrogene1000",
  "neighborhood" : "GC-PWS2: Brittany Farms Highlands",
  "cameratype" : "C170 on Raspberry PI running WVIEW",
  "assoc_station_id" : "KPACHALF3",
  "trafficcam" : "",
  "updated" : "2017-01-07 20:51:19",
  "rect" : "304,229,364,274"
}
,
{
  "id" : "pmquattriniCAM2",
  "name" : "pmquattrini",
  "camindex" : "2",
  "lat" : "41.06426239",
  "lon" : "-75.98122406",
  "image" : "/webcamramdisk/p/m/pmquattrini/2/current.jpg",
  "thumb" : "p/m/pmquattrini/2/current-thumb.jpg",
  "zip" : "18222",
  "city" : "Drums",
  "state" : "PA",
  "country" : "US",
  "link" : "http://",
  "linktext" : "",
  "neighborhood" : "Sand Springs",
  "cameratype" : "",
  "assoc_station_id" : "KPADRUMS6",
  "trafficcam" : "",
  "updated" : "2017-01-07 21:07:06",
  "rect" : "55,39,115,84"
}
,
{
  "id" : "batradCAM1",
  "name" : "batrad",
  "camindex" : "1",
  "lat" : "40.29506302",
  "lon" : "-74.77598572",
  "image" : "/webcamramdisk/b/a/batrad/1/current.jpg",
  "thumb" : "b/a/batrad/1/current-thumb.jpg",
  "zip" : "08534",
  "city" : "Pennington",
  "state" : "NJ",
  "country" : "US",
  "link" : "http://",
  "linktext" : "",
  "neighborhood" : "Brandon Farms",
  "cameratype" : "Bloomsky",
  "assoc_station_id" : "KNJPENNI8",
  "trafficcam" : "",
  "updated" : "2017-01-07 21:05:00",
  "rect" : "441,224,501,269"
}
,
{
  "id" : "mbergonzoniCAM1",
  "name" : "mbergonzoni",
  "camindex" : "1",
  "lat" : "40.05626297",
  "lon" : "-74.87142181",
  "image" : "/webcamramdisk/m/b/mbergonzoni/1/current.jpg",
  "thumb" : "m/b/mbergonzoni/1/current-thumb.jpg",
  "zip" : "08016",
  "city" : "Burlington",
  "state" : "NJ",
  "country" : "US",
  "link" : "http://",
  "linktext" : "",
  "neighborhood" : "",
  "cameratype" : "Foscam 9804P",
  "assoc_station_id" : "KNJBURLI11",
  "trafficcam" : "",
  "updated" : "2017-01-07 21:09:08",
  "rect" : "410,282,470,327"
}
,
{
  "id" : "Glenn79CAM1",
  "name" : "Glenn79",
  "camindex" : "1",
  "lat" : "40.82496643",
  "lon" : "-74.36614990",
  "image" : "/webcamramdisk/g/l/Glenn79/1/current.jpg",
  "thumb" : "g/l/Glenn79/1/current-thumb.jpg",
  "zip" : "07936",
  "city" : "East Hanover",
  "state" : "NJ",
  "country" : "US",
  "link" : "http://",
  "linktext" : "",
  "neighborhood" : "East Hanover",
  "cameratype" : "",
  "assoc_station_id" : "KNJEASTH2",
  "trafficcam" : "",
  "updated" : "2017-01-07 21:10:02",
  "rect" : "572,97,632,142"
}
,
{
  "id" : "btkCAM1",
  "name" : "btk",
  "camindex" : "1",
  "lat" : "40.49675369",
  "lon" : "-75.43868256",
  "image" : "/webcamramdisk/b/t/btk/1/current.jpg",
  "thumb" : "b/t/btk/1/current-thumb.jpg",
  "zip" : "18036",
  "city" : "Coopersburg",
  "state" : "PA",
  "country" : "US",
  "link" : "http://",
  "linktext" : "",
  "neighborhood" : "Gable Drive",
  "cameratype" : "",
  "assoc_station_id" : "KPACOOPE8",
  "trafficcam" : "",
  "updated" : "2017-01-07 21:06:26",
  "rect" : "229,176,289,221"
}
] }
